[
  {
    "name": "Subdued Ceremony",
    "location": "Sacred Grounds",
    "region": "Central Hyrule",
    "complete": false
  },
  {
    "name": "Revali’s Flap",
    "location": "Rito Village",
    "region": "Tabantha",
    "complete": false
  },
  {
    "name": "Resolve and Grief",
    "location": "Lake Kolomo",
    "region": "Central Hyrule",
    "complete": false
  },
  {
    "name": "Daruk’s Mettle",
    "location": "Goron City",
    "region": "Eldin",
    "complete": false
  },
  {
    "name": "Zelda’s Resentment",
    "location": "Ancient Columns",
    "region": "Tabantha",
    "complete": false
  },
  {
    "name": "Urbosa’s Hand",
    "location": "Gerudo Town",
    "region": "Gerudo Desert",
    "complete": false
  },
  {
    "name": "Blades of the Yiga",
    "location": "Kara Kara Bazaar",
    "region": "Gerudo Desert",
    "complete": false
  },
  {
    "name": "A Premonition",
    "location": "Eldin Canyon",
    "region": "Eldin",
    "complete": false
  },
  {
    "name": "Silent Princess",
    "location": "Irch Plain",
    "region": "Hyrule Ridge",
    "complete": false
  },
  {
    "name": "Mipha’s Touch",
    "location": "Zora’s Domain",
    "region": "Lanayru",
    "complete": false
  },
  {
    "name": "Shelter from the Storm",
    "location": "West Necluda",
    "region": "Dueling Peaks",
    "complete": false
  },
  {
    "name": "Father and Daughter",
    "location": "Hyrule Castle",
    "region": "Central Hyrule",
    "complete": false
  },
  {
    "name": "Slumbering Power",
    "location": "Spring of Power",
    "region": "Akkala",
    "complete": false
  },
  {
    "name": "To Mount Lanayru",
    "location": "Sanidin Park Ruins",
    "region": "Hyrule Ridge",
    "complete": false
  },
  {
    "name": "Return of Calamity Ganon",
    "location": "Lanayru Road",
    "region": "East Gate, Necluda",
    "complete": false
  },
  {
    "name": "Despair",
    "location": "Hyrule Field",
    "region": "Central Hyrule",
    "complete": false
  },
  {
    "name": "Zelda’s Awakening",
    "location": "Fort Hateno",
    "region": "Dueling Peaks",
    "complete": false
  },
  {
    "name": "The Master Sword",
    "location": "Korok Town",
    "region": "Great Hyrule Forest",
    "complete": false
  }
]
